{
"type": "FeatureCollection",
"name": "BEN_nodes",
"crs": { "type": "name", "properties": { "name": "urn:ogc:def:crs:OGC:1.3:CRS84" } },
"features": [
{ "type": "Feature", "properties": { "node_id": "ed2d26cf-5d3f-46d1-876e-d4d99ed9745a", "name": "Sakete", "country": "Benin", "region": "ECOWAS", "longitude": 2.6690682166899999, "latitude": 6.7141031626499998, "infrastructure_type": null, "operator_name": "<NA>", "node_status": null, "type_infr": "Fibre Operational", "data_source": "ECOWAS", "data_source_year": "<NA>" }, "geometry": { "type": "Point", "coordinates": [ 2.66906821669, 6.71410316265 ] } },
{ "type": "Feature", "properties": { "node_id": "e46d364c-709f-4947-87ee-5ba740b25b91", "name": "Porto Novo", "country": "Benin", "region": "ECOWAS", "longitude": 2.62679969124, "latitude": 6.4913995150300003, "infrastructure_type": null, "operator_name": "<NA>", "node_status": null, "type_infr": "Fibre Operational", "data_source": "ECOWAS", "data_source_year": "<NA>" }, "geometry": { "type": "Point", "coordinates": [ 2.62679969124, 6.49139951503 ] } },
{ "type": "Feature", "properties": { "node_id": "0f4ff55b-dd2d-47ae-8d19-a88cd654e009", "name": "Guene", "country": "Benin", "region": "ECOWAS", "longitude": 3.2168264980900001, "latitude": 11.726357278409999, "infrastructure_type": null, "operator_name": "<NA>", "node_status": null, "type_infr": "Fibre Operational", "data_source": "ECOWAS", "data_source_year": "<NA>" }, "geometry": { "type": "Point", "coordinates": [ 3.21682649809, 11.726357278409999 ] } },
{ "type": "Feature", "properties": { "node_id": "78c93f60-db28-493c-be5c-118c51be0d32", "name": "Kandi", "country": "Benin", "region": "ECOWAS", "longitude": 2.93535472222, "latitude": 11.127569804549999, "infrastructure_type": null, "operator_name": "<NA>", "node_status": null, "type_infr": "Fibre Operational", "data_source": "ECOWAS", "data_source_year": "<NA>" }, "geometry": { "type": "Point", "coordinates": [ 2.93535472222, 11.127569804549999 ] } },
{ "type": "Feature", "properties": { "node_id": "38d3405d-fd89-4889-823e-41511ff910ff", "name": "Gogounou", "country": "Benin", "region": "ECOWAS", "longitude": 2.8374059443199999, "latitude": 10.83683439508, "infrastructure_type": null, "operator_name": "<NA>", "node_status": null, "type_infr": "Fibre Operational", "data_source": "ECOWAS", "data_source_year": "<NA>" }, "geometry": { "type": "Point", "coordinates": [ 2.83740594432, 10.83683439508 ] } },
{ "type": "Feature", "properties": { "node_id": "d899a080-9d01-4cdf-9a01-6984f9b63bec", "name": "Sori", "country": "Benin", "region": "ECOWAS", "longitude": 2.7727123653399999, "latitude": 10.68801497224, "infrastructure_type": null, "operator_name": "<NA>", "node_status": null, "type_infr": "Fibre Operational", "data_source": "ECOWAS", "data_source_year": "<NA>" }, "geometry": { "type": "Point", "coordinates": [ 2.77271236534, 10.68801497224 ] } },
{ "type": "Feature", "properties": { "node_id": "96dfd60b-5575-43bc-97c2-de85dbabaf59", "name": "Beroubouay", "country": "Benin", "region": "ECOWAS", "longitude": 2.7265508218200001, "latitude": 10.5386443076, "infrastructure_type": null, "operator_name": "<NA>", "node_status": null, "type_infr": "Fibre Operational", "data_source": "ECOWAS", "data_source_year": "<NA>" }, "geometry": { "type": "Point", "coordinates": [ 2.72655082182, 10.5386443076 ] } },
{ "type": "Feature", "properties": { "node_id": "c096b87d-687d-4dd2-80c8-fd5421eda585", "name": "Gamia", "country": "Benin", "region": "ECOWAS", "longitude": 2.7131663536700001, "latitude": 10.327169710710001, "infrastructure_type": null, "operator_name": "<NA>", "node_status": null, "type_infr": "Fibre Operational", "data_source": "ECOWAS", "data_source_year": "<NA>" }, "geometry": { "type": "Point", "coordinates": [ 2.71316635367, 10.327169710710001 ] } },
{ "type": "Feature", "properties": { "node_id": "43320e35-c6c1-4fbf-9afa-0b9b1b0070e0", "name": "Birni", "country": "Benin", "region": "ECOWAS", "longitude": 1.47484329124, "latitude": 10.087657131629999, "infrastructure_type": null, "operator_name": "<NA>", "node_status": null, "type_infr": "Fibre Operational", "data_source": "ECOWAS", "data_source_year": "<NA>" }, "geometry": { "type": "Point", "coordinates": [ 1.47484329124, 10.087657131629999 ] } },
{ "type": "Feature", "properties": { "node_id": "dd791dd2-20a4-4f41-a1fb-dde5bdbacc43", "name": "Porga", "country": "Benin", "region": "ECOWAS", "longitude": 0.97801183322999996, "latitude": 11.04217791412, "infrastructure_type": null, "operator_name": "<NA>", "node_status": null, "type_infr": "Fibre Operational", "data_source": "ECOWAS", "data_source_year": "<NA>" }, "geometry": { "type": "Point", "coordinates": [ 0.97801183323, 11.04217791412 ] } },
{ "type": "Feature", "properties": { "node_id": "43904aef-ac73-4c8e-aef5-24ccc962c4a0", "name": "Grand Popo", "country": "Benin", "region": "ECOWAS", "longitude": 1.8064319711700001, "latitude": 6.2778848317499998, "infrastructure_type": null, "operator_name": "<NA>", "node_status": null, "type_infr": "Fibre Operational", "data_source": "ECOWAS", "data_source_year": "<NA>" }, "geometry": { "type": "Point", "coordinates": [ 1.80643197117, 6.27788483175 ] } },
{ "type": "Feature", "properties": { "node_id": "c6d8eca1-45b3-4fda-9544-d41f134f5fce", "name": "Natitingou Relay", "country": "Benin", "region": "ECOWAS", "longitude": 1.4320606580599999, "latitude": 10.32460284854, "infrastructure_type": null, "operator_name": "<NA>", "node_status": null, "type_infr": "Microwave Operational", "data_source": "ECOWAS", "data_source_year": "<NA>" }, "geometry": { "type": "Point", "coordinates": [ 1.43206065806, 10.32460284854 ] } },
{ "type": "Feature", "properties": { "node_id": "2c117d72-ddb6-4171-8f58-1f72a0fecf6f", "name": "Porga Relay", "country": "Benin", "region": "ECOWAS", "longitude": 1.1188472086000001, "latitude": 10.92895391311, "infrastructure_type": null, "operator_name": "<NA>", "node_status": null, "type_infr": "Microwave Operational", "data_source": "ECOWAS", "data_source_year": "<NA>" }, "geometry": { "type": "Point", "coordinates": [ 1.1188472086, 10.92895391311 ] } },
{ "type": "Feature", "properties": { "node_id": "014fab03-7d82-4b33-9ab3-f6c820698f76", "name": "Gamia", "country": "Benin", "region": "ECOWAS", "longitude": 2.6711575886399999, "latitude": 10.67647274438, "infrastructure_type": null, "operator_name": "<NA>", "node_status": null, "type_infr": "Microwave Operational", "data_source": "ECOWAS", "data_source_year": "<NA>" }, "geometry": { "type": "Point", "coordinates": [ 2.67115758864, 10.67647274438 ] } },
{ "type": "Feature", "properties": { "node_id": "c8bb282c-4155-4cbf-8ec4-90ae15a697fb", "name": "Doume", "country": "Benin", "region": "ECOWAS", "longitude": 1.65798180371, "latitude": 8.1556183918599992, "infrastructure_type": null, "operator_name": "<NA>", "node_status": null, "type_infr": "Fibre Operational", "data_source": "ECOWAS", "data_source_year": "<NA>" }, "geometry": { "type": "Point", "coordinates": [ 1.65798180371, 8.155618391859999 ] } },
{ "type": "Feature", "properties": { "node_id": "6d6cad18-c2c9-46a6-ace5-5f4614ce757f", "name": "Cove", "country": "Benin", "region": "ECOWAS", "longitude": 2.3399464994299999, "latitude": 7.2183551887000004, "infrastructure_type": null, "operator_name": "<NA>", "node_status": null, "type_infr": "Fibre Operational", "data_source": "ECOWAS", "data_source_year": "<NA>" }, "geometry": { "type": "Point", "coordinates": [ 2.33994649943, 7.2183551887 ] } },
{ "type": "Feature", "properties": { "node_id": "2d3ae5d1-215a-4617-9d44-085814bd3453", "name": "Adjohoun", "country": "Benin", "region": "ECOWAS", "longitude": 2.4833462803600002, "latitude": 6.7166561937000004, "infrastructure_type": null, "operator_name": "<NA>", "node_status": null, "type_infr": "Fibre Operational", "data_source": "ECOWAS", "data_source_year": "<NA>" }, "geometry": { "type": "Point", "coordinates": [ 2.48334628036, 6.7166561937 ] } },
{ "type": "Feature", "properties": { "node_id": "54e038ed-5218-47da-9fb5-c6cb47582385", "name": "Undefined", "country": "Benin", "region": "ECOWAS", "longitude": 2.60009469356, "latitude": 6.5675190342200001, "infrastructure_type": null, "operator_name": "<NA>", "node_status": null, "type_infr": "Fibre Operational", "data_source": "ECOWAS", "data_source_year": "<NA>" }, "geometry": { "type": "Point", "coordinates": [ 2.60009469356, 6.56751903422 ] } },
{ "type": "Feature", "properties": { "node_id": "b6c8373a-e182-451c-a1a0-4aae4151e650", "name": "Ketou", "country": "Benin", "region": "ECOWAS", "longitude": 2.6113240271399998, "latitude": 7.3655397235400004, "infrastructure_type": null, "operator_name": "<NA>", "node_status": null, "type_infr": "Fibre Operational", "data_source": "ECOWAS", "data_source_year": "<NA>" }, "geometry": { "type": "Point", "coordinates": [ 2.61132402714, 7.36553972354 ] } },
{ "type": "Feature", "properties": { "node_id": "79786f54-614c-4549-a27f-b683569b4798", "name": "COTONOU", "country": "Benin", "region": "ECOWAS", "longitude": 2.44000588309, "latitude": 6.3570188825200002, "infrastructure_type": null, "operator_name": "<NA>", "node_status": null, "type_infr": "Fibre Operational", "data_source": "ECOWAS", "data_source_year": "<NA>" }, "geometry": { "type": "Point", "coordinates": [ 2.44000588309, 6.35701888252 ] } },
{ "type": "Feature", "properties": { "node_id": "7005b50c-6e03-4b0e-99c6-d21fdb3790e0", "name": "Ouidah", "country": "Benin", "region": "ECOWAS", "longitude": 2.085520392, "latitude": 6.3532520343099996, "infrastructure_type": null, "operator_name": "<NA>", "node_status": null, "type_infr": "Fibre Operational", "data_source": "ECOWAS", "data_source_year": "<NA>" }, "geometry": { "type": "Point", "coordinates": [ 2.085520392, 6.35325203431 ] } },
{ "type": "Feature", "properties": { "node_id": "bfb0dcd1-abbe-4272-b135-bde172e604d9", "name": "N'dali", "country": "Benin", "region": "ECOWAS", "longitude": 2.7193424121200001, "latitude": 9.8613187898400003, "infrastructure_type": null, "operator_name": "<NA>", "node_status": null, "type_infr": "Fibre Operational", "data_source": "ECOWAS", "data_source_year": "<NA>" }, "geometry": { "type": "Point", "coordinates": [ 2.71934241212, 9.86131878984 ] } },
{ "type": "Feature", "properties": { "node_id": "62e1026c-366f-4ac2-ad47-3797e894a9ec", "name": "Angara Debou", "country": "Benin", "region": "ECOWAS", "longitude": 3.0414447255699999, "latitude": 11.32164957502, "infrastructure_type": null, "operator_name": "<NA>", "node_status": null, "type_infr": "Fibre Operational", "data_source": "ECOWAS", "data_source_year": "<NA>" }, "geometry": { "type": "Point", "coordinates": [ 3.04144472557, 11.32164957502 ] } },
{ "type": "Feature", "properties": { "node_id": "d62c5193-4413-44ab-9636-d96834a5e1da", "name": "Tourou", "country": "Benin", "region": "ECOWAS", "longitude": 2.54834902133, "latitude": 9.3459394784299992, "infrastructure_type": null, "operator_name": "<NA>", "node_status": null, "type_infr": "Fibre Operational", "data_source": "ECOWAS", "data_source_year": "<NA>" }, "geometry": { "type": "Point", "coordinates": [ 2.54834902133, 9.345939478429999 ] } },
{ "type": "Feature", "properties": { "node_id": "ec157cc4-7282-4f78-b685-3530680bcc4b", "name": "Gorobani", "country": "Benin", "region": "ECOWAS", "longitude": 2.0252443480400002, "latitude": 9.4641193750500001, "infrastructure_type": null, "operator_name": "<NA>", "node_status": null, "type_infr": "Fibre Operational", "data_source": "ECOWAS", "data_source_year": "<NA>" }, "geometry": { "type": "Point", "coordinates": [ 2.02524434804, 9.46411937505 ] } },
{ "type": "Feature", "properties": { "node_id": "f506f87a-c758-463e-a72b-7a4628225009", "name": "Cocotomey", "country": "Benin", "region": "ECOWAS", "longitude": 2.2965674171499999, "latitude": 6.3922022521499997, "infrastructure_type": null, "operator_name": "<NA>", "node_status": null, "type_infr": "Fibre Operational", "data_source": "ECOWAS", "data_source_year": "<NA>" }, "geometry": { "type": "Point", "coordinates": [ 2.29656741715, 6.39220225215 ] } },
{ "type": "Feature", "properties": { "node_id": "65578540-12b2-4eba-a7e6-03ee994bb864", "name": "Seme", "country": "Benin", "region": "ECOWAS", "longitude": 2.6225921704799999, "latitude": 6.3795963128100004, "infrastructure_type": null, "operator_name": "<NA>", "node_status": null, "type_infr": "Fibre Operational", "data_source": "ECOWAS", "data_source_year": "<NA>" }, "geometry": { "type": "Point", "coordinates": [ 2.62259217048, 6.37959631281 ] } },
{ "type": "Feature", "properties": { "node_id": "93f49ab5-e4eb-4445-bf39-a2f930fe4e73", "name": "Houantehou", "country": "Benin", "region": "ECOWAS", "longitude": 1.3921029365, "latitude": 10.78827893976, "infrastructure_type": null, "operator_name": "<NA>", "node_status": null, "type_infr": "Microwave Operational", "data_source": "ECOWAS", "data_source_year": "<NA>" }, "geometry": { "type": "Point", "coordinates": [ 1.3921029365, 10.78827893976 ] } },
{ "type": "Feature", "properties": { "node_id": "3b94a1a9-6af7-4ab8-b6e3-6960b2e9f745", "name": "Kotiakou", "country": "Benin", "region": "ECOWAS", "longitude": 1.5182749906599999, "latitude": 10.60754599731, "infrastructure_type": null, "operator_name": "<NA>", "node_status": null, "type_infr": "Microwave Operational", "data_source": "ECOWAS", "data_source_year": "<NA>" }, "geometry": { "type": "Point", "coordinates": [ 1.51827499066, 10.60754599731 ] } },
{ "type": "Feature", "properties": { "node_id": "3e20ebb5-3df8-4d72-8e18-9141b995b213", "name": "Banikoara", "country": "Benin", "region": "ECOWAS", "longitude": 2.4349769492000002, "latitude": 11.298963713039999, "infrastructure_type": null, "operator_name": "<NA>", "node_status": null, "type_infr": "Fibre Operational", "data_source": "ECOWAS", "data_source_year": "<NA>" }, "geometry": { "type": "Point", "coordinates": [ 2.4349769492, 11.298963713039999 ] } },
{ "type": "Feature", "properties": { "node_id": "99dfcdbc-54cc-4373-8a8c-cf33ff127887", "name": "Alibori", "country": "Benin", "region": "ECOWAS", "longitude": 2.6484337357899999, "latitude": 11.17580262736, "infrastructure_type": null, "operator_name": "<NA>", "node_status": null, "type_infr": "Microwave Operational", "data_source": "ECOWAS", "data_source_year": "<NA>" }, "geometry": { "type": "Point", "coordinates": [ 2.64843373579, 11.17580262736 ] } },
{ "type": "Feature", "properties": { "node_id": "2fb787cf-c3e9-47ad-8cf8-113a6da615b0", "name": "Founougo", "country": "Benin", "region": "ECOWAS", "longitude": 2.5400508045699999, "latitude": 11.465873316570001, "infrastructure_type": null, "operator_name": "<NA>", "node_status": null, "type_infr": "Microwave Operational", "data_source": "ECOWAS", "data_source_year": "<NA>" }, "geometry": { "type": "Point", "coordinates": [ 2.54005080457, 11.465873316570001 ] } },
{ "type": "Feature", "properties": { "node_id": "77c8599c-5cd6-46f9-b4cd-901d9d9e75f8", "name": "Karimama", "country": "Benin", "region": "ECOWAS", "longitude": 3.2290063655300001, "latitude": 12.01656957893, "infrastructure_type": null, "operator_name": "<NA>", "node_status": null, "type_infr": "Microwave Operational", "data_source": "ECOWAS", "data_source_year": "<NA>" }, "geometry": { "type": "Point", "coordinates": [ 3.22900636553, 12.01656957893 ] } },
{ "type": "Feature", "properties": { "node_id": "1b7c6ec7-823a-4f10-aa61-300082041817", "name": "Gamia Relay", "country": "Benin", "region": "ECOWAS", "longitude": 2.68109627211, "latitude": 10.546325242229999, "infrastructure_type": null, "operator_name": "<NA>", "node_status": null, "type_infr": "Microwave Operational", "data_source": "ECOWAS", "data_source_year": "<NA>" }, "geometry": { "type": "Point", "coordinates": [ 2.68109627211, 10.546325242229999 ] } },
{ "type": "Feature", "properties": { "node_id": "fb010058-e6b0-4a84-8855-16bce4ccbb07", "name": "Sininde", "country": "Benin", "region": "ECOWAS", "longitude": 2.3849570028599998, "latitude": 10.33892919797, "infrastructure_type": null, "operator_name": "<NA>", "node_status": null, "type_infr": "Microwave Operational", "data_source": "ECOWAS", "data_source_year": "<NA>" }, "geometry": { "type": "Point", "coordinates": [ 2.38495700286, 10.33892919797 ] } },
{ "type": "Feature", "properties": { "node_id": "87b0675e-1b29-4122-92f5-10f41cada4cb", "name": "Kalele", "country": "Benin", "region": "ECOWAS", "longitude": 3.3860073500299999, "latitude": 10.28498438822, "infrastructure_type": null, "operator_name": "<NA>", "node_status": null, "type_infr": "Microwave Operational", "data_source": "ECOWAS", "data_source_year": "<NA>" }, "geometry": { "type": "Point", "coordinates": [ 3.38600735003, 10.28498438822 ] } },
{ "type": "Feature", "properties": { "node_id": "8486e38e-4ecf-4051-bf42-ed82c19266b4", "name": "Savalou", "country": "Benin", "region": "ECOWAS", "longitude": 1.97389881691, "latitude": 7.9228711430200001, "infrastructure_type": null, "operator_name": "<NA>", "node_status": null, "type_infr": "Fibre Operational", "data_source": "ECOWAS", "data_source_year": "<NA>" }, "geometry": { "type": "Point", "coordinates": [ 1.97389881691, 7.92287114302 ] } },
{ "type": "Feature", "properties": { "node_id": "a757a3c8-c5a8-48d3-9b45-33092de6ba33", "name": "Djidja", "country": "Benin", "region": "ECOWAS", "longitude": 1.93436881789, "latitude": 7.3438607631700004, "infrastructure_type": null, "operator_name": "<NA>", "node_status": null, "type_infr": "Fibre Operational", "data_source": "ECOWAS", "data_source_year": "<NA>" }, "geometry": { "type": "Point", "coordinates": [ 1.93436881789, 7.34386076317 ] } },
{ "type": "Feature", "properties": { "node_id": "bef95d22-c1e8-4764-92db-3f6ce055a42d", "name": "Attogou", "country": "Benin", "region": "ECOWAS", "longitude": 2.3245311448799999, "latitude": 6.6499447800300002, "infrastructure_type": null, "operator_name": "<NA>", "node_status": null, "type_infr": "Microwave Operational", "data_source": "ECOWAS", "data_source_year": "<NA>" }, "geometry": { "type": "Point", "coordinates": [ 2.32453114488, 6.64994478003 ] } },
{ "type": "Feature", "properties": { "node_id": "65faa29d-e5aa-40f3-9239-5551e9fb2809", "name": "Ouinhi", "country": "Benin", "region": "ECOWAS", "longitude": 2.5122194762499999, "latitude": 7.0927196475900001, "infrastructure_type": null, "operator_name": "<NA>", "node_status": null, "type_infr": "Fibre Operational", "data_source": "ECOWAS", "data_source_year": "<NA>" }, "geometry": { "type": "Point", "coordinates": [ 2.51221947625, 7.09271964759 ] } },
{ "type": "Feature", "properties": { "node_id": "622dc026-a029-4ef5-91de-0af28dbabaf3", "name": "Pobe", "country": "Benin", "region": "ECOWAS", "longitude": 2.6664085494299998, "latitude": 6.9831603399000004, "infrastructure_type": null, "operator_name": "<NA>", "node_status": null, "type_infr": "Fibre Operational", "data_source": "ECOWAS", "data_source_year": "<NA>" }, "geometry": { "type": "Point", "coordinates": [ 2.66640854943, 6.9831603399 ] } },
{ "type": "Feature", "properties": { "node_id": "47e66a01-334c-41e6-ae39-2658bfa3d287", "name": "Undefined", "country": "Benin", "region": "ECOWAS", "longitude": 0.99271931175000006, "latitude": 10.99503803194, "infrastructure_type": null, "operator_name": "<NA>", "node_status": null, "type_infr": "Microwave Operational", "data_source": "ECOWAS", "data_source_year": "<NA>" }, "geometry": { "type": "Point", "coordinates": [ 0.99271931175, 10.99503803194 ] } },
{ "type": "Feature", "properties": { "node_id": "bf5104bb-c3ea-40ed-8c40-23d9e6310dc0", "name": "Beterou", "country": "Benin", "region": "ECOWAS", "longitude": 2.2649752843200002, "latitude": 9.1969927748, "infrastructure_type": null, "operator_name": "<NA>", "node_status": null, "type_infr": "Fibre Operational", "data_source": "ECOWAS", "data_source_year": "<NA>" }, "geometry": { "type": "Point", "coordinates": [ 2.26497528432, 9.1969927748 ] } },
{ "type": "Feature", "properties": { "node_id": "91fee91a-20cc-4afd-929c-97cb532de60c", "name": "Djougou", "country": "Benin", "region": "ECOWAS", "longitude": 1.6654564001400001, "latitude": 9.7068393404000002, "infrastructure_type": null, "operator_name": "<NA>", "node_status": null, "type_infr": "Fibre Operational", "data_source": "ECOWAS", "data_source_year": "<NA>" }, "geometry": { "type": "Point", "coordinates": [ 1.66545640014, 9.7068393404 ] } },
{ "type": "Feature", "properties": { "node_id": "458f4a44-c894-44e5-9870-7888558c5611", "name": "Oake", "country": "Benin", "region": "ECOWAS", "longitude": 1.3863187406699999, "latitude": 9.6729887779699997, "infrastructure_type": null, "operator_name": "<NA>", "node_status": null, "type_infr": "Fibre Operational", "data_source": "ECOWAS", "data_source_year": "<NA>" }, "geometry": { "type": "Point", "coordinates": [ 1.38631874067, 9.67298877797 ] } },
{ "type": "Feature", "properties": { "node_id": "8d77272a-5a9d-402c-8258-5413aad581d7", "name": "Lokossa", "country": "Benin", "region": "ECOWAS", "longitude": 1.71555213689, "latitude": 6.6446433455799996, "infrastructure_type": null, "operator_name": "<NA>", "node_status": null, "type_infr": "Fibre Operational", "data_source": "ECOWAS", "data_source_year": "<NA>" }, "geometry": { "type": "Point", "coordinates": [ 1.71555213689, 6.64464334558 ] } },
{ "type": "Feature", "properties": { "node_id": "1cf8baa3-698c-461e-99c4-dfb37b1683c8", "name": "Bohicon", "country": "Benin", "region": "ECOWAS", "longitude": 2.0682587240500001, "latitude": 7.17443301596, "infrastructure_type": null, "operator_name": "<NA>", "node_status": null, "type_infr": "Fibre Operational", "data_source": "ECOWAS", "data_source_year": "<NA>" }, "geometry": { "type": "Point", "coordinates": [ 2.06825872405, 7.17443301596 ] } },
{ "type": "Feature", "properties": { "node_id": "651d5480-727f-4d09-9722-af8e315efcfc", "name": "Save", "country": "Benin", "region": "ECOWAS", "longitude": 2.486456637, "latitude": 8.02606567636, "infrastructure_type": null, "operator_name": "<NA>", "node_status": null, "type_infr": "Fibre Operational", "data_source": "ECOWAS", "data_source_year": "<NA>" }, "geometry": { "type": "Point", "coordinates": [ 2.486456637, 8.02606567636 ] } },
{ "type": "Feature", "properties": { "node_id": "44e84b13-ca46-4063-83b7-8e58b9b4ff75", "name": "Tchaourou", "country": "Benin", "region": "ECOWAS", "longitude": 2.60527201841, "latitude": 8.86419579931, "infrastructure_type": null, "operator_name": "<NA>", "node_status": null, "type_infr": "Fibre Operational", "data_source": "ECOWAS", "data_source_year": "<NA>" }, "geometry": { "type": "Point", "coordinates": [ 2.60527201841, 8.86419579931 ] } },
{ "type": "Feature", "properties": { "node_id": "b18246be-ac8f-442a-826e-1cc60f3bb933", "name": "Alfa Kouara", "country": "Benin", "region": "ECOWAS", "longitude": 3.0752330718500001, "latitude": 11.443477978520001, "infrastructure_type": null, "operator_name": "<NA>", "node_status": null, "type_infr": "Fibre Operational", "data_source": "ECOWAS", "data_source_year": "<NA>" }, "geometry": { "type": "Point", "coordinates": [ 3.07523307185, 11.443477978520001 ] } },
{ "type": "Feature", "properties": { "node_id": "3bccfdc8-b8a7-455b-bb7b-de97398ff63b", "name": "Ina", "country": "Benin", "region": "ECOWAS", "longitude": 2.72912576996, "latitude": 9.9708105886799991, "infrastructure_type": null, "operator_name": "<NA>", "node_status": null, "type_infr": "Fibre Operational", "data_source": "ECOWAS", "data_source_year": "<NA>" }, "geometry": { "type": "Point", "coordinates": [ 2.72912576996, 9.970810588679999 ] } },
{ "type": "Feature", "properties": { "node_id": "6d6dc23c-9981-4e4a-9e84-aceee9f164be", "name": "Copargo", "country": "Benin", "region": "ECOWAS", "longitude": 1.5521757739299999, "latitude": 9.8296045855499994, "infrastructure_type": null, "operator_name": "<NA>", "node_status": null, "type_infr": "Fibre Operational", "data_source": "ECOWAS", "data_source_year": "<NA>" }, "geometry": { "type": "Point", "coordinates": [ 1.55217577393, 9.829604585549999 ] } },
{ "type": "Feature", "properties": { "node_id": "93440335-0541-4ed3-b0b5-07772d778b57", "name": "Dasso", "country": "Benin", "region": "ECOWAS", "longitude": 2.1841606170799999, "latitude": 7.7771806661299996, "infrastructure_type": null, "operator_name": "<NA>", "node_status": null, "type_infr": "Fibre Operational", "data_source": "ECOWAS", "data_source_year": "<NA>" }, "geometry": { "type": "Point", "coordinates": [ 2.18416061708, 7.77718066613 ] } },
{ "type": "Feature", "properties": { "node_id": "779cabf5-63b9-4f6f-b8ea-c4166c9177ec", "name": "Allada", "country": "Benin", "region": "ECOWAS", "longitude": 2.1482307558899998, "latitude": 6.6638308615000001, "infrastructure_type": null, "operator_name": "<NA>", "node_status": null, "type_infr": "Fibre Operational", "data_source": "ECOWAS", "data_source_year": "<NA>" }, "geometry": { "type": "Point", "coordinates": [ 2.14823075589, 6.6638308615 ] } },
{ "type": "Feature", "properties": { "node_id": "ed7fe93c-ec4d-49f8-9bd7-e2b689f99d5d", "name": "Pohou", "country": "Benin", "region": "ECOWAS", "longitude": 2.2128459544900001, "latitude": 6.3857184181099997, "infrastructure_type": null, "operator_name": "<NA>", "node_status": null, "type_infr": "Fibre Operational", "data_source": "ECOWAS", "data_source_year": "<NA>" }, "geometry": { "type": "Point", "coordinates": [ 2.21284595449, 6.38571841811 ] } },
{ "type": "Feature", "properties": { "node_id": "019ae1ce-1af1-47cc-b6de-cdf6191beb04", "name": "Abomey Calavi", "country": "Benin", "region": "ECOWAS", "longitude": 2.35775816053, "latitude": 6.4531216578899997, "infrastructure_type": null, "operator_name": "<NA>", "node_status": null, "type_infr": "Fibre Operational", "data_source": "ECOWAS", "data_source_year": "<NA>" }, "geometry": { "type": "Point", "coordinates": [ 2.35775816053, 6.45312165789 ] } },
{ "type": "Feature", "properties": { "node_id": "2ed81269-40d0-4b92-8b85-251428ccc4a7", "name": "Krake", "country": "Benin", "region": "ECOWAS", "longitude": 2.7011143836699998, "latitude": 6.3788824745100001, "infrastructure_type": null, "operator_name": "<NA>", "node_status": null, "type_infr": "Fibre Operational", "data_source": "ECOWAS", "data_source_year": "<NA>" }, "geometry": { "type": "Point", "coordinates": [ 2.70111438367, 6.37888247451 ] } },
{ "type": "Feature", "properties": { "node_id": "4131b31b-c8f5-43fc-a8ee-c480afe9d98a", "name": "Pehonko", "country": "Benin", "region": "ECOWAS", "longitude": 2.0007411787099998, "latitude": 10.22646132235, "infrastructure_type": null, "operator_name": "<NA>", "node_status": null, "type_infr": "Fibre Operational", "data_source": "ECOWAS", "data_source_year": "<NA>" }, "geometry": { "type": "Point", "coordinates": [ 2.00074117871, 10.22646132235 ] } },
{ "type": "Feature", "properties": { "node_id": "093fccb2-b39d-45b8-b4df-ded76f31ae99", "name": "Goumouri", "country": "Benin", "region": "ECOWAS", "longitude": 2.2286199064900001, "latitude": 11.1788811497, "infrastructure_type": null, "operator_name": "<NA>", "node_status": null, "type_infr": "Microwave Operational", "data_source": "ECOWAS", "data_source_year": "<NA>" }, "geometry": { "type": "Point", "coordinates": [ 2.22861990649, 11.1788811497 ] } },
{ "type": "Feature", "properties": { "node_id": "21ca1f48-8ab6-451d-bb4b-427334b2939c", "name": "Donwari", "country": "Benin", "region": "ECOWAS", "longitude": 2.7715096622600002, "latitude": 11.137551313019999, "infrastructure_type": null, "operator_name": "<NA>", "node_status": null, "type_infr": "Microwave Operational", "data_source": "ECOWAS", "data_source_year": "<NA>" }, "geometry": { "type": "Point", "coordinates": [ 2.77150966226, 11.137551313019999 ] } },
{ "type": "Feature", "properties": { "node_id": "3903745c-cee3-4aeb-ac3b-4c731ec99639", "name": "Alpha Kouara Relay", "country": "Benin", "region": "ECOWAS", "longitude": 2.9442419738400001, "latitude": 11.518217482780001, "infrastructure_type": null, "operator_name": "<NA>", "node_status": null, "type_infr": "Microwave Operational", "data_source": "ECOWAS", "data_source_year": "<NA>" }, "geometry": { "type": "Point", "coordinates": [ 2.94424197384, 11.518217482780001 ] } },
{ "type": "Feature", "properties": { "node_id": "a0b90fdb-c038-4c88-9ec9-5322a55d3c91", "name": "Segbana", "country": "Benin", "region": "ECOWAS", "longitude": 3.6993837436899999, "latitude": 10.93236351919, "infrastructure_type": null, "operator_name": "<NA>", "node_status": null, "type_infr": "Fibre Operational", "data_source": "ECOWAS", "data_source_year": "<NA>" }, "geometry": { "type": "Point", "coordinates": [ 3.69938374369, 10.93236351919 ] } },
{ "type": "Feature", "properties": { "node_id": "439b1f0e-4ee4-4847-8f22-92f589d9a35b", "name": "Bemberenke Relay", "country": "Benin", "region": "ECOWAS", "longitude": 2.61485569379, "latitude": 10.22906212637, "infrastructure_type": null, "operator_name": "<NA>", "node_status": null, "type_infr": "Microwave Operational", "data_source": "ECOWAS", "data_source_year": "<NA>" }, "geometry": { "type": "Point", "coordinates": [ 2.61485569379, 10.22906212637 ] } },
{ "type": "Feature", "properties": { "node_id": "bc4b525c-5bae-46b4-a367-fdb2ee2a163b", "name": "Nikki", "country": "Benin", "region": "ECOWAS", "longitude": 3.2149719408699999, "latitude": 9.9279871181499999, "infrastructure_type": null, "operator_name": "<NA>", "node_status": null, "type_infr": "Fibre Operational", "data_source": "ECOWAS", "data_source_year": "<NA>" }, "geometry": { "type": "Point", "coordinates": [ 3.21497194087, 9.92798711815 ] } },
{ "type": "Feature", "properties": { "node_id": "70eba943-650e-4d55-99e0-cfb366f4a7ef", "name": "Bassila", "country": "Benin", "region": "ECOWAS", "longitude": 1.66642889028, "latitude": 9.0043126461099998, "infrastructure_type": null, "operator_name": "<NA>", "node_status": null, "type_infr": "Fibre Operational", "data_source": "ECOWAS", "data_source_year": "<NA>" }, "geometry": { "type": "Point", "coordinates": [ 1.66642889028, 9.00431264611 ] } },
{ "type": "Feature", "properties": { "node_id": "985c0b91-b73c-4d76-92e1-9e96ca952f44", "name": "Bante", "country": "Benin", "region": "ECOWAS", "longitude": 1.89116898228, "latitude": 8.4097448272800008, "infrastructure_type": null, "operator_name": "<NA>", "node_status": null, "type_infr": "Fibre Operational", "data_source": "ECOWAS", "data_source_year": "<NA>" }, "geometry": { "type": "Point", "coordinates": [ 1.89116898228, 8.409744827280001 ] } },
{ "type": "Feature", "properties": { "node_id": "99a5443c-b020-404c-86aa-1433ecc539a6", "name": "Tchetti", "country": "Benin", "region": "ECOWAS", "longitude": 1.6658340250300001, "latitude": 7.8251112581499997, "infrastructure_type": null, "operator_name": "<NA>", "node_status": null, "type_infr": "Fibre Operational", "data_source": "ECOWAS", "data_source_year": "<NA>" }, "geometry": { "type": "Point", "coordinates": [ 1.66583402503, 7.82511125815 ] } },
{ "type": "Feature", "properties": { "node_id": "632d2db1-c5de-4534-afc8-9b8760161b62", "name": "Dogbo", "country": "Benin", "region": "ECOWAS", "longitude": 1.782828, "latitude": 6.80126, "infrastructure_type": null, "operator_name": "<NA>", "node_status": null, "type_infr": "Fibre Operational", "data_source": "ECOWAS", "data_source_year": "<NA>" }, "geometry": { "type": "Point", "coordinates": [ 1.782828, 6.80126 ] } },
{ "type": "Feature", "properties": { "node_id": "af9fc6db-252a-4966-926e-4a23f09b3f47", "name": "Sanbue Zougbonou", "country": "Benin", "region": "ECOWAS", "longitude": 1.8173216841099999, "latitude": 6.5625757354900003, "infrastructure_type": null, "operator_name": "<NA>", "node_status": null, "type_infr": "Fibre Operational", "data_source": "ECOWAS", "data_source_year": "<NA>" }, "geometry": { "type": "Point", "coordinates": [ 1.81732168411, 6.56257573549 ] } },
{ "type": "Feature", "properties": { "node_id": "2a8ffbad-4f60-4d04-9f41-56a133cfb380", "name": "Athieme", "country": "Benin", "region": "ECOWAS", "longitude": 1.67569616504, "latitude": 6.5912541892599998, "infrastructure_type": null, "operator_name": "<NA>", "node_status": null, "type_infr": "Fibre Operational", "data_source": "ECOWAS", "data_source_year": "<NA>" }, "geometry": { "type": "Point", "coordinates": [ 1.67569616504, 6.59125418926 ] } },
{ "type": "Feature", "properties": { "node_id": "8f61ec38-9129-4ab0-b930-d5e7f8d02a76", "name": "Abomey", "country": "Benin", "region": "ECOWAS", "longitude": 1.9889999843399999, "latitude": 7.1840000498699998, "infrastructure_type": null, "operator_name": "<NA>", "node_status": null, "type_infr": "Fibre Operational", "data_source": "ECOWAS", "data_source_year": "<NA>" }, "geometry": { "type": "Point", "coordinates": [ 1.98899998434, 7.18400004987 ] } },
{ "type": "Feature", "properties": { "node_id": "b68386ba-2382-438a-8fda-ad6f339c2a20", "name": "Parakou", "country": "Benin", "region": "ECOWAS", "longitude": 2.62599998493, "latitude": 9.3300000518699999, "infrastructure_type": null, "operator_name": "<NA>", "node_status": null, "type_infr": "Fibre Operational", "data_source": "ECOWAS", "data_source_year": "<NA>" }, "geometry": { "type": "Point", "coordinates": [ 2.62599998493, 9.33000005187 ] } },
{ "type": "Feature", "properties": { "node_id": "baa27d29-755f-4eab-929e-88e240d720b2", "name": "Natitingou", "country": "Benin", "region": "ECOWAS", "longitude": 1.38899998378, "latitude": 10.313000052790001, "infrastructure_type": null, "operator_name": "<NA>", "node_status": null, "type_infr": "Fibre Operational", "data_source": "ECOWAS", "data_source_year": "<NA>" }, "geometry": { "type": "Point", "coordinates": [ 1.38899998378, 10.313000052790001 ] } },
{ "type": "Feature", "properties": { "node_id": "50959719-d5f4-4934-8e4b-b8a75c0f55e9", "name": "Onigbolo", "country": "Benin", "region": "ECOWAS", "longitude": 2.6519999998000001, "latitude": 7.1849999999499996, "infrastructure_type": null, "operator_name": "<NA>", "node_status": null, "type_infr": "Fibre Operational", "data_source": "ECOWAS", "data_source_year": "<NA>" }, "geometry": { "type": "Point", "coordinates": [ 2.6519999998, 7.18499999995 ] } },
{ "type": "Feature", "properties": { "node_id": "a365c65c-ea58-48f7-820c-aab8501416a7", "name": "Avakpa", "country": "Benin", "region": "ECOWAS", "longitude": 2.0509451744899998, "latitude": 6.6554131557099998, "infrastructure_type": null, "operator_name": "<NA>", "node_status": null, "type_infr": "Fibre Operational", "data_source": "ECOWAS", "data_source_year": "<NA>" }, "geometry": { "type": "Point", "coordinates": [ 2.05094517449, 6.65541315571 ] } },
{ "type": "Feature", "properties": { "node_id": "2603f9c1-dfa2-4628-91b2-97191a97db1a", "name": "Malanville", "country": "Benin", "region": "ECOWAS", "longitude": 3.388157582, "latitude": 11.85802255348, "infrastructure_type": null, "operator_name": "<NA>", "node_status": null, "type_infr": "Fibre Operational", "data_source": "ECOWAS", "data_source_year": "<NA>" }, "geometry": { "type": "Point", "coordinates": [ 3.388157582, 11.85802255348 ] } },
{ "type": "Feature", "properties": { "node_id": "29d9ea8f-ebac-4a27-988d-793584d67bd0", "name": "Karimama", "country": "Benin", "region": "ECOWAS", "longitude": 3.1134911174800002, "latitude": 12.120015871210001, "infrastructure_type": null, "operator_name": "<NA>", "node_status": null, "type_infr": "Fibre Under Construction", "data_source": "ECOWAS", "data_source_year": "<NA>" }, "geometry": { "type": "Point", "coordinates": [ 3.11349111748, 12.120015871210001 ] } },
{ "type": "Feature", "properties": { "node_id": "64afc076-c512-445d-b2f8-0c7ea5cf3275", "name": "Bemberenke", "country": "Benin", "region": "ECOWAS", "longitude": 2.66570446817, "latitude": 10.22307352717, "infrastructure_type": null, "operator_name": "<NA>", "node_status": null, "type_infr": "Fibre Operational", "data_source": "ECOWAS", "data_source_year": "<NA>" }, "geometry": { "type": "Point", "coordinates": [ 2.66570446817, 10.22307352717 ] } },
{ "type": "Feature", "properties": { "node_id": "1f5e4e3e-e618-48c9-a0fc-05d085e8f626", "name": "Sirarou", "country": "Benin", "region": "ECOWAS", "longitude": 2.6457284629900002, "latitude": 9.5885255279700008, "infrastructure_type": null, "operator_name": "<NA>", "node_status": null, "type_infr": "Fibre Operational", "data_source": "ECOWAS", "data_source_year": "<NA>" }, "geometry": { "type": "Point", "coordinates": [ 2.64572846299, 9.588525527970001 ] } },
{ "type": "Feature", "properties": { "node_id": "92a59999-8635-4ff0-8368-158525e6a2e9", "name": "Toukountouna", "country": "Benin", "region": "ECOWAS", "longitude": 1.37990279711, "latitude": 10.49573469413, "infrastructure_type": null, "operator_name": "<NA>", "node_status": null, "type_infr": "Fibre Operational", "data_source": "ECOWAS", "data_source_year": "<NA>" }, "geometry": { "type": "Point", "coordinates": [ 1.37990279711, 10.49573469413 ] } },
{ "type": "Feature", "properties": { "node_id": "eb6b5861-5614-40c8-9bcd-7bd5eb77c053", "name": "Tanguieta", "country": "Benin", "region": "ECOWAS", "longitude": 1.2698527255900001, "latitude": 10.62065639693, "infrastructure_type": null, "operator_name": "<NA>", "node_status": null, "type_infr": "Fibre Operational", "data_source": "ECOWAS", "data_source_year": "<NA>" }, "geometry": { "type": "Point", "coordinates": [ 1.26985272559, 10.62065639693 ] } },
{ "type": "Feature", "properties": { "node_id": "4bd4d817-9887-4111-823c-08223c1a7fde", "name": "Tchatchou", "country": "Benin", "region": "ECOWAS", "longitude": 2.5560703722899998, "latitude": 9.1212985306400007, "infrastructure_type": null, "operator_name": "<NA>", "node_status": null, "type_infr": "Fibre Operational", "data_source": "ECOWAS", "data_source_year": "<NA>" }, "geometry": { "type": "Point", "coordinates": [ 2.55607037229, 9.121298530640001 ] } },
{ "type": "Feature", "properties": { "node_id": "9b4d9418-9376-4d6a-871b-dd5a68b34309", "name": "Come", "country": "Benin", "region": "ECOWAS", "longitude": 1.87982755444, "latitude": 6.4001865820499999, "infrastructure_type": null, "operator_name": "<NA>", "node_status": null, "type_infr": "Fibre Operational", "data_source": "ECOWAS", "data_source_year": "<NA>" }, "geometry": { "type": "Point", "coordinates": [ 1.87982755444, 6.40018658205 ] } },
{ "type": "Feature", "properties": { "node_id": "48c73e9c-975d-4d96-be92-b00a47f6a8bb", "name": "Agoue", "country": "Benin", "region": "ECOWAS", "longitude": 1.6458075645100001, "latitude": 6.2419127674799997, "infrastructure_type": null, "operator_name": "<NA>", "node_status": null, "type_infr": "Fibre Operational", "data_source": "ECOWAS", "data_source_year": "<NA>" }, "geometry": { "type": "Point", "coordinates": [ 1.64580756451, 6.24191276748 ] } },
{ "type": "Feature", "properties": { "node_id": "adda1a72-3e62-4e78-851c-3d4afc80ac93", "name": "Igolo", "country": "Benin", "region": "ECOWAS", "longitude": 2.7268125625400002, "latitude": 6.6501410291800003, "infrastructure_type": null, "operator_name": "<NA>", "node_status": null, "type_infr": "Fibre Operational", "data_source": "ECOWAS", "data_source_year": "<NA>" }, "geometry": { "type": "Point", "coordinates": [ 2.72681256254, 6.65014102918 ] } },
{ "type": "Feature", "properties": { "node_id": "05f6bf06-090b-48c0-8e35-b3fef299d688", "name": "Kouande", "country": "Benin", "region": "ECOWAS", "longitude": 1.6914112479600001, "latitude": 10.33401295981, "infrastructure_type": null, "operator_name": "<NA>", "node_status": null, "type_infr": "Fibre Operational", "data_source": "ECOWAS", "data_source_year": "<NA>" }, "geometry": { "type": "Point", "coordinates": [ 1.69141124796, 10.33401295981 ] } },
{ "type": "Feature", "properties": { "node_id": "21b1dbb9-d01a-4549-85ab-a6a545eec781", "name": "Kerou", "country": "Benin", "region": "ECOWAS", "longitude": 2.1126075721299999, "latitude": 10.82468954536, "infrastructure_type": null, "operator_name": "<NA>", "node_status": null, "type_infr": "Fibre Operational", "data_source": "ECOWAS", "data_source_year": "<NA>" }, "geometry": { "type": "Point", "coordinates": [ 2.11260757213, 10.82468954536 ] } },
{ "type": "Feature", "properties": { "node_id": "cdf7535e-cc25-413b-840e-353b9973ae24", "name": "Gbessaka", "country": "Benin", "region": "ECOWAS", "longitude": 3.383333, "latitude": 10.866667, "infrastructure_type": null, "operator_name": "<NA>", "node_status": null, "type_infr": "Microwave Operational", "data_source": "ECOWAS", "data_source_year": "<NA>" }, "geometry": { "type": "Point", "coordinates": [ 3.383333, 10.866667 ] } },
{ "type": "Feature", "properties": { "node_id": "31678a25-b68a-49f0-b740-707832808b37", "name": "Bensekou", "country": "Benin", "region": "ECOWAS", "longitude": 3.15, "latitude": 10.983333, "infrastructure_type": null, "operator_name": "<NA>", "node_status": null, "type_infr": "Microwave Operational", "data_source": "ECOWAS", "data_source_year": "<NA>" }, "geometry": { "type": "Point", "coordinates": [ 3.15, 10.983333 ] } },
{ "type": "Feature", "properties": { "node_id": "d0ebf88a-cf94-492c-b421-5d2cf09fda78", "name": "Biro", "country": "Benin", "region": "ECOWAS", "longitude": 2.94802266101, "latitude": 9.8960088276599993, "infrastructure_type": null, "operator_name": "<NA>", "node_status": null, "type_infr": "Microwave Operational", "data_source": "ECOWAS", "data_source_year": "<NA>" }, "geometry": { "type": "Point", "coordinates": [ 2.94802266101, 9.896008827659999 ] } },
{ "type": "Feature", "properties": { "node_id": "530e1fbb-53f2-4a63-b148-0c0ca806f042", "name": "Perere", "country": "Benin", "region": "ECOWAS", "longitude": 2.9959680416, "latitude": 9.7869741969399993, "infrastructure_type": null, "operator_name": "<NA>", "node_status": null, "type_infr": "Microwave Operational", "data_source": "ECOWAS", "data_source_year": "<NA>" }, "geometry": { "type": "Point", "coordinates": [ 2.9959680416, 9.786974196939999 ] } },
{ "type": "Feature", "properties": { "node_id": "e7b7ceb2-ae89-42a3-9f31-9c26ca78f90b", "name": "Apiahoue", "country": "Benin", "region": "ECOWAS", "longitude": 1.6872960374399999, "latitude": 6.9352350209200004, "infrastructure_type": null, "operator_name": "<NA>", "node_status": null, "type_infr": "Fibre Operational", "data_source": "ECOWAS", "data_source_year": "<NA>" }, "geometry": { "type": "Point", "coordinates": [ 1.68729603744, 6.93523502092 ] } },
{ "type": "Feature", "properties": { "node_id": "31f369b5-bb6f-4c63-99c0-46f6baf235b7", "name": "Azove", "country": "Benin", "region": "ECOWAS", "longitude": 1.72252048199, "latitude": 6.9377309820399997, "infrastructure_type": null, "operator_name": "<NA>", "node_status": null, "type_infr": "Microwave Operational", "data_source": "ECOWAS", "data_source_year": "<NA>" }, "geometry": { "type": "Point", "coordinates": [ 1.72252048199, 6.93773098204 ] } },
{ "type": "Feature", "properties": { "node_id": "64737ff9-c7a3-4b4c-8e54-6aaac3e0c0da", "name": "Bonou", "country": "Benin", "region": "ECOWAS", "longitude": 2.4522570589, "latitude": 6.9066457969300004, "infrastructure_type": null, "operator_name": "<NA>", "node_status": null, "type_infr": "Fibre Operational", "data_source": "ECOWAS", "data_source_year": "<NA>" }, "geometry": { "type": "Point", "coordinates": [ 2.4522570589, 6.90664579693 ] } }
]
}
