{
"type": "FeatureCollection",
"name": "NIG_nodes",
"crs": { "type": "name", "properties": { "name": "urn:ogc:def:crs:OGC:1.3:CRS84" } },
"features": [
{ "type": "Feature", "properties": { "node_id": "ff81a93f-271d-40ac-b2bd-0c40c78ab0ae", "name": "Kantchari", "country": "Niger", "region": "ECOWAS", "longitude": 1.5805016398322762, "latitude": 12.63594421593881, "infrastructure_type": "Fibre", "operator_name": "Niger Télécoms", "node_status": "Operational", "type_infr": "Fibre Operational", "data_source": "AFDB", "data_source_year": 2020 }, "geometry": { "type": "Point", "coordinates": [ 1.580501639832276, 12.63594421593881 ] } },
{ "type": "Feature", "properties": { "node_id": "05cf797c-105b-4c4f-bdd4-ddd3e415f6ae", "name": "Niamey", "country": "Niger", "region": "ECOWAS", "longitude": 2.1098204808900975, "latitude": 13.522982528957458, "infrastructure_type": "Fibre", "operator_name": "Niger Télécoms", "node_status": "Operational", "type_infr": "Fibre Operational", "data_source": "AFDB", "data_source_year": 2020 }, "geometry": { "type": "Point", "coordinates": [ 2.109820480890098, 13.522982528957458 ] } },
{ "type": "Feature", "properties": { "node_id": "4b7fafb4-9a29-4548-b702-92a15aa638f3", "name": "Dosso", "country": "Niger", "region": "ECOWAS", "longitude": 3.1952434569011743, "latitude": 13.045178542544754, "infrastructure_type": "Fibre", "operator_name": "Niger Télécoms", "node_status": "Operational", "type_infr": "Fibre Operational", "data_source": "AFDB", "data_source_year": 2020 }, "geometry": { "type": "Point", "coordinates": [ 3.195243456901174, 13.045178542544754 ] } },
{ "type": "Feature", "properties": { "node_id": "3229e8dd-2984-483e-ade9-b5c6b4cb5dc0", "name": "Gaya", "country": "Niger", "region": "ECOWAS", "longitude": 3.4003285513088288, "latitude": 11.887355641788867, "infrastructure_type": "Fibre", "operator_name": "Niger Télécoms", "node_status": "Operational", "type_infr": "Fibre Operational", "data_source": "AFDB", "data_source_year": 2020 }, "geometry": { "type": "Point", "coordinates": [ 3.400328551308829, 11.887355641788867 ] } },
{ "type": "Feature", "properties": { "node_id": "62d371da-d471-44ee-9459-e2f60d3c2203", "name": "Tsernaoua", "country": "Niger", "region": "ECOWAS", "longitude": 5.3471827260734344, "latitude": 13.897032097472668, "infrastructure_type": "Fibre", "operator_name": "Niger Télécoms", "node_status": "Operational", "type_infr": "Fibre Operational", "data_source": "AFDB", "data_source_year": 2020 }, "geometry": { "type": "Point", "coordinates": [ 5.347182726073434, 13.897032097472668 ] } },
{ "type": "Feature", "properties": { "node_id": "7017c407-b3b3-4d54-87fa-4b6657232996", "name": "Ayorou", "country": "Niger", "region": "ECOWAS", "longitude": 0.91998505069365644, "latitude": 14.734017255099625, "infrastructure_type": "Fibre", "operator_name": "Niger Télécoms", "node_status": "Planned", "type_infr": "Fibre Planned", "data_source": "AFDB", "data_source_year": 2020 }, "geometry": { "type": "Point", "coordinates": [ 0.919985050693656, 14.734017255099625 ] } },
{ "type": "Feature", "properties": { "node_id": "9920e541-eab7-4098-8daf-801efb4d7ea1", "name": "Madaoua", "country": "Niger", "region": "ECOWAS", "longitude": 5.9542441644580011, "latitude": 14.074241020588383, "infrastructure_type": "Fibre", "operator_name": "Niger Télécoms", "node_status": "Operational", "type_infr": "Fibre Operational", "data_source": "AFDB", "data_source_year": 2020 }, "geometry": { "type": "Point", "coordinates": [ 5.954244164458001, 14.074241020588383 ] } },
{ "type": "Feature", "properties": { "node_id": "854af7d1-65b7-47c4-af6c-08b4520cf5d5", "name": "Maradi", "country": "Niger", "region": "ECOWAS", "longitude": 7.1063305798798178, "latitude": 13.514866674541443, "infrastructure_type": "Fibre", "operator_name": "Niger Télécoms", "node_status": "Operational", "type_infr": "Fibre Operational", "data_source": "AFDB", "data_source_year": 2020 }, "geometry": { "type": "Point", "coordinates": [ 7.106330579879818, 13.514866674541443 ] } },
{ "type": "Feature", "properties": { "node_id": "44e483ef-0edc-43be-9e42-5abde83d8c0a", "name": "Dan Issa", "country": "Niger", "region": "ECOWAS", "longitude": 7.2630935820961575, "latitude": 13.124292803178093, "infrastructure_type": "Fibre", "operator_name": "Niger Télécoms", "node_status": "Operational", "type_infr": "Fibre Operational", "data_source": "AFDB", "data_source_year": 2020 }, "geometry": { "type": "Point", "coordinates": [ 7.263093582096158, 13.124292803178093 ] } },
{ "type": "Feature", "properties": { "node_id": "93f3f75a-c3b9-4a57-9c4b-4142e015f150", "name": "Zinder", "country": "Niger", "region": "ECOWAS", "longitude": 8.9971932939196062, "latitude": 13.774031182192726, "infrastructure_type": "Fibre", "operator_name": "Niger Télécoms", "node_status": "Operational", "type_infr": "Fibre Operational", "data_source": "AFDB", "data_source_year": 2020 }, "geometry": { "type": "Point", "coordinates": [ 8.997193293919606, 13.774031182192726 ] } },
{ "type": "Feature", "properties": { "node_id": "07586c85-0fcd-48f4-89f0-4b32229a0003", "name": "Takieta", "country": "Niger", "region": "ECOWAS", "longitude": 8.5293309591315278, "latitude": 13.679265187587905, "infrastructure_type": "Fibre", "operator_name": "Niger Télécoms", "node_status": "Operational", "type_infr": "Fibre Operational", "data_source": "AFDB", "data_source_year": 2020 }, "geometry": { "type": "Point", "coordinates": [ 8.529330959131528, 13.679265187587905 ] } },
{ "type": "Feature", "properties": { "node_id": "837d7906-2e73-456b-bffb-9eb01a4583df", "name": "Dan Barto", "country": "Niger", "region": "ECOWAS", "longitude": 8.3060771479256008, "latitude": 13.184076671635292, "infrastructure_type": "Fibre", "operator_name": "Niger Télécoms", "node_status": "Planned", "type_infr": "Fibre Planned", "data_source": "AFDB", "data_source_year": 2020 }, "geometry": { "type": "Point", "coordinates": [ 8.306077147925601, 13.184076671635292 ] } },
{ "type": "Feature", "properties": { "node_id": "75cacad1-31a8-4a28-b8b6-52b7e2bb380a", "name": "Tinkin", "country": "Niger", "region": "ECOWAS", "longitude": 8.9643118902039483, "latitude": 12.883120007929122, "infrastructure_type": "Fibre", "operator_name": "Trans-Sahara Optical Fibre Backbone", "node_status": "Planned", "type_infr": "Fibre Planned", "data_source": "AFDB", "data_source_year": 2020 }, "geometry": { "type": "Point", "coordinates": [ 8.964311890203948, 12.883120007929122 ] } },
{ "type": "Feature", "properties": { "node_id": "ed156a47-ccad-40e9-a015-0fc7dfef4180", "name": "Balleyara", "country": "Niger", "region": "ECOWAS", "longitude": 2.9466510094597682, "latitude": 13.782515818990134, "infrastructure_type": "Fibre", "operator_name": "Niger Télécoms", "node_status": "Planned", "type_infr": "Fibre Planned", "data_source": "AFDB", "data_source_year": 2020 }, "geometry": { "type": "Point", "coordinates": [ 2.946651009459768, 13.782515818990134 ] } },
{ "type": "Feature", "properties": { "node_id": "39cfc446-e90c-43a1-ac35-a350983f1255", "name": "Filingué", "country": "Niger", "region": "ECOWAS", "longitude": 3.3198731416714202, "latitude": 14.358738964143974, "infrastructure_type": "Fibre", "operator_name": "Niger Télécoms", "node_status": "Planned", "type_infr": "Fibre Planned", "data_source": "AFDB", "data_source_year": 2020 }, "geometry": { "type": "Point", "coordinates": [ 3.31987314167142, 14.358738964143974 ] } },
{ "type": "Feature", "properties": { "node_id": "5cb31f4b-d7f6-4a99-8d23-3cba9a6d49af", "name": "Abala", "country": "Niger", "region": "ECOWAS", "longitude": 3.4436334065790559, "latitude": 14.930199834565931, "infrastructure_type": "Fibre", "operator_name": "Niger Télécoms", "node_status": "Planned", "type_infr": "Fibre Planned", "data_source": "AFDB", "data_source_year": 2020 }, "geometry": { "type": "Point", "coordinates": [ 3.443633406579056, 14.930199834565931 ] } },
{ "type": "Feature", "properties": { "node_id": "357abaf3-571b-4641-b261-f2fcff0d2a28", "name": "Tebaram", "country": "Niger", "region": "ECOWAS", "longitude": 4.4587102460077572, "latitude": 14.836506756224534, "infrastructure_type": "Fibre", "operator_name": "Niger Télécoms", "node_status": "Planned", "type_infr": "Fibre Planned", "data_source": "AFDB", "data_source_year": 2020 }, "geometry": { "type": "Point", "coordinates": [ 4.458710246007757, 14.836506756224534 ] } },
{ "type": "Feature", "properties": { "node_id": "b00d5b56-2b30-4d0a-8ef7-3a522b140e82", "name": "Ilela", "country": "Niger", "region": "ECOWAS", "longitude": 5.2505332742305235, "latitude": 14.459450918912397, "infrastructure_type": "Fibre", "operator_name": "Niger Télécoms", "node_status": "Planned", "type_infr": "Fibre Planned", "data_source": "AFDB", "data_source_year": 2020 }, "geometry": { "type": "Point", "coordinates": [ 5.250533274230524, 14.459450918912397 ] } },
{ "type": "Feature", "properties": { "node_id": "8b8cbf8f-8408-4fe4-852a-0143c1990c2a", "name": "Tahoua", "country": "Niger", "region": "ECOWAS", "longitude": 5.2847493474696927, "latitude": 14.884824167005357, "infrastructure_type": "Fibre", "operator_name": "Niger Télécoms", "node_status": "Planned", "type_infr": "Fibre Planned", "data_source": "AFDB", "data_source_year": 2020 }, "geometry": { "type": "Point", "coordinates": [ 5.284749347469693, 14.884824167005357 ] } },
{ "type": "Feature", "properties": { "node_id": "73d10a79-7f55-47ba-bcec-9d8083ec0fd8", "name": "Abalak", "country": "Niger", "region": "ECOWAS", "longitude": 6.2830821510579486, "latitude": 15.460505060019599, "infrastructure_type": "Fibre", "operator_name": "Niger Télécoms", "node_status": "Planned", "type_infr": "Fibre Planned", "data_source": "AFDB", "data_source_year": 2020 }, "geometry": { "type": "Point", "coordinates": [ 6.283082151057949, 15.460505060019599 ] } },
{ "type": "Feature", "properties": { "node_id": "f66a0966-5c25-4c6c-ac5a-a8252b015128", "name": "Agadez", "country": "Niger", "region": "ECOWAS", "longitude": 7.9836937912005075, "latitude": 16.97316670738708, "infrastructure_type": "Fibre", "operator_name": "Niger Télécoms", "node_status": "Planned", "type_infr": "Fibre Planned", "data_source": "AFDB", "data_source_year": 2020 }, "geometry": { "type": "Point", "coordinates": [ 7.983693791200507, 16.97316670738708 ] } },
{ "type": "Feature", "properties": { "node_id": "00d872d0-b37c-4327-afb4-db53d9cda774", "name": "Arlit", "country": "Niger", "region": "ECOWAS", "longitude": 7.4148819069975733, "latitude": 18.743734158404596, "infrastructure_type": "Fibre", "operator_name": "Trans-Sahara Optical Fibre Backbone", "node_status": "Planned", "type_infr": "Fibre Planned", "data_source": "AFDB", "data_source_year": 2020 }, "geometry": { "type": "Point", "coordinates": [ 7.414881906997573, 18.743734158404596 ] } },
{ "type": "Feature", "properties": { "node_id": "aaa252a0-98d8-4c83-8fb5-2c3b9416289a", "name": "Assamaka", "country": "Niger", "region": "ECOWAS", "longitude": 5.8108518069201889, "latitude": 19.440171386957815, "infrastructure_type": "Fibre", "operator_name": "Trans-Sahara Optical Fibre Backbone", "node_status": "Planned", "type_infr": "Fibre Planned", "data_source": "AFDB", "data_source_year": 2020 }, "geometry": { "type": "Point", "coordinates": [ 5.810851806920189, 19.440171386957815 ] } },
{ "type": "Feature", "properties": { "node_id": "5e03f2af-c734-4b20-b5fe-253ede360d7f", "name": "Tanout", "country": "Niger", "region": "ECOWAS", "longitude": 8.8787013312528362, "latitude": 14.973630686653532, "infrastructure_type": "Fibre", "operator_name": "Niger Télécoms", "node_status": "Planned", "type_infr": "Fibre Planned", "data_source": "AFDB", "data_source_year": 2020 }, "geometry": { "type": "Point", "coordinates": [ 8.878701331252836, 14.973630686653532 ] } },
{ "type": "Feature", "properties": { "node_id": "e4b0526c-413b-4b71-ab9b-1358a05b3d90", "name": "Goure", "country": "Niger", "region": "ECOWAS", "longitude": 10.261860710945848, "latitude": 13.975385188625467, "infrastructure_type": "Fibre", "operator_name": "Trans-Sahara Optical Fibre Backbone", "node_status": "Planned", "type_infr": "Fibre Planned", "data_source": "AFDB", "data_source_year": 2020 }, "geometry": { "type": "Point", "coordinates": [ 10.261860710945848, 13.975385188625467 ] } },
{ "type": "Feature", "properties": { "node_id": "3029a994-cc76-4ae2-81c1-bf819895409b", "name": "Mainé", "country": "Niger", "region": "ECOWAS", "longitude": 12.030290232550735, "latitude": 13.218754720803483, "infrastructure_type": "Fibre", "operator_name": "Trans-Sahara Optical Fibre Backbone", "node_status": "Planned", "type_infr": "Fibre Planned", "data_source": "AFDB", "data_source_year": 2020 }, "geometry": { "type": "Point", "coordinates": [ 12.030290232550735, 13.218754720803483 ] } },
{ "type": "Feature", "properties": { "node_id": "6ee556aa-a531-45b6-9f0b-b91030b71117", "name": "Diffa", "country": "Niger", "region": "ECOWAS", "longitude": 12.610893415600026, "latitude": 13.315740235914124, "infrastructure_type": "Fibre", "operator_name": "Trans-Sahara Optical Fibre Backbone", "node_status": "Planned", "type_infr": "Fibre Planned", "data_source": "AFDB", "data_source_year": 2020 }, "geometry": { "type": "Point", "coordinates": [ 12.610893415600026, 13.315740235914124 ] } },
{ "type": "Feature", "properties": { "node_id": "8669288e-fc13-4d00-8d5d-fc0346cc4f35", "name": "Nguimi", "country": "Niger", "region": "ECOWAS", "longitude": 13.105161552842729, "latitude": 14.250993180350816, "infrastructure_type": "Fibre", "operator_name": "Trans-Sahara Optical Fibre Backbone", "node_status": "Planned", "type_infr": "Fibre Planned", "data_source": "AFDB", "data_source_year": 2020 }, "geometry": { "type": "Point", "coordinates": [ 13.105161552842729, 14.250993180350816 ] } }
]
}
